{"meta":{"code":200},"notifications":[{"type":"notificationTray","item":{"unreadCount":1}}],"response":{"similarVenues":{"count":5,"items":[{"id":"4b61cec9f964a52023242ae3","name":"Triple Shot World Atlas Cafe","contact":{"phone":"2125390966","formattedPhone":"(212) 539-0966"},"location":{"address":"37 Clinton St.","crossStreet":"Btw Rivington & Stanton St.","lat":40.720012,"lng":-73.98451536,"postalCode":"10002","city":"New York","state":"NY","country":"United States","cc":"US"},"canonicalUrl":"https:\/\/foursquare.com\/v\/triple-shot-world-atlas-cafe\/4b61cec9f964a52023242ae3","categories":[{"id":"4bf58dd8d48988d1e0931735","name":"Coffee Shop","pluralName":"Coffee Shops","shortName":"Coffee Shop","icon":{"prefix":"https:\/\/foursquare.com\/img\/categories_v2\/food\/coffeeshop_","suffix":".png"},"primary":true}],"verified":true,"stats":{"checkinsCount":3267,"usersCount":1111,"tipCount":42}},{"id":"4aa9386ef964a5208b5220e3","name":"The Breslin Bar & Dining Room","contact":{"phone":"2126791939","formattedPhone":"(212) 679-1939","twitter":"thebreslin"},"location":{"address":"16 W 29th St","crossStreet":"btwn Broadway & 5th Ave","lat":40.74583734577147,"lng":-73.98799265354255,"postalCode":"10016","city":"New York","state":"NY","country":"United States","cc":"US"},"canonicalUrl":"https:\/\/foursquare.com\/v\/the-breslin-bar--dining-room\/4aa9386ef964a5208b5220e3","categories":[{"id":"4bf58dd8d48988d14e941735","name":"American Restaurant","pluralName":"American Restaurants","shortName":"American","icon":{"prefix":"https:\/\/foursquare.com\/img\/categories_v2\/food\/default_","suffix":".png"},"primary":true}],"verified":true,"stats":{"checkinsCount":23589,"usersCount":15030,"tipCount":373},"url":"http:\/\/www.thebreslin.com","menu":{"type":"foodAndBeverage","url":"https:\/\/foursquare.com\/v\/the-breslin-bar--dining-room\/4aa9386ef964a5208b5220e3\/menu","mobileUrl":"https:\/\/foursquare.com\/v\/4aa9386ef964a5208b5220e3\/device_menu"}},{"id":"4d406a44de17a0932403f86b","name":"Pause Cafe","contact":{"phone":"2126775415","formattedPhone":"(212) 677-5415","twitter":"pausecafenyc"},"location":{"address":"3 Clinton St","crossStreet":"Btwn E Houston St & Stanton St","lat":40.7212077,"lng":-73.9840915,"postalCode":"10002","city":"New York","state":"NY","country":"United States","cc":"US"},"canonicalUrl":"https:\/\/foursquare.com\/v\/pause-cafe\/4d406a44de17a0932403f86b","categories":[{"id":"4bf58dd8d48988d1e0931735","name":"Coffee Shop","pluralName":"Coffee Shops","shortName":"Coffee Shop","icon":{"prefix":"https:\/\/foursquare.com\/img\/categories_v2\/food\/coffeeshop_","suffix":".png"},"primary":true}],"verified":true,"stats":{"checkinsCount":2107,"usersCount":685,"tipCount":29}},{"id":"4657db7ef964a5200f471fe3","name":"Cocoa Bar","contact":{},"location":{"address":"21 Clinton St","crossStreet":"at Houston","lat":40.720623,"lng":-73.984246,"postalCode":"10002","city":"New York","state":"NY","country":"United States","cc":"US"},"canonicalUrl":"https:\/\/foursquare.com\/v\/cocoa-bar\/4657db7ef964a5200f471fe3","categories":[{"id":"4bf58dd8d48988d16d941735","name":"Café","pluralName":"Cafés","shortName":"Café","icon":{"prefix":"https:\/\/foursquare.com\/img\/categories_v2\/food\/cafe_","suffix":".png"},"primary":true}],"verified":true,"stats":{"checkinsCount":3029,"usersCount":1342,"tipCount":36},"venuePage":{"id":"51687006"}},{"id":"3fd66200f964a520b8ea1ee3","name":"Veselka","contact":{"phone":"2122289682","formattedPhone":"(212) 228-9682","twitter":"veselkanyc"},"location":{"address":"144 2nd Ave.","crossStreet":"at E 9th St.","lat":40.729136234409154,"lng":-73.9869715129134,"postalCode":"10003","city":"New York","state":"NY","country":"United States","cc":"US"},"canonicalUrl":"https:\/\/foursquare.com\/v\/veselka\/3fd66200f964a520b8ea1ee3","categories":[{"id":"4bf58dd8d48988d109941735","name":"Eastern European Restaurant","pluralName":"Eastern European Restaurants","shortName":"Eastern European","icon":{"prefix":"https:\/\/foursquare.com\/img\/categories_v2\/food\/default_","suffix":".png"},"primary":true}],"verified":false,"stats":{"checkinsCount":25067,"usersCount":14193,"tipCount":303},"url":"http:\/\/www.veselka.com","menu":{"type":"foodAndBeverage","url":"https:\/\/foursquare.com\/v\/veselka\/3fd66200f964a520b8ea1ee3\/menu","mobileUrl":"https:\/\/foursquare.com\/v\/3fd66200f964a520b8ea1ee3\/device_menu"}}]}}}