{"meta":{"code":200},"notifications":[{"type":"notificationTray","item":{"unreadCount":0}}],"response":{"nextVenues":{"count":5,"items":[{"id":"4b06a391f964a5200aee22e3","name":"Rippy's Bar & Grill","contact":{"phone":"6152447477","formattedPhone":"(615) 244-7477"},"location":{"address":"429 Broadway","crossStreet":"at 5th Ave.","lat":36.16042578761674,"lng":-86.778238150795,"postalCode":"37203","city":"Nashville","state":"TN","country":"United States","cc":"US"},"canonicalUrl":"https:\/\/foursquare.com\/v\/rippys-bar--grill\/4b06a391f964a5200aee22e3","categories":[{"id":"4bf58dd8d48988d1df931735","name":"BBQ Joint","pluralName":"BBQ Joints","shortName":"BBQ","icon":{"prefix":"https:\/\/foursquare.com\/img\/categories_v2\/food\/bbq_","suffix":".png"},"primary":true}],"verified":true,"stats":{"checkinsCount":10597,"usersCount":7381,"tipCount":73},"url":"http:\/\/www.rippysbarandgrill.com","venuePage":{"id":"45469692"}},{"id":"4b93ee94f964a520be5a34e3","name":"Patr√≥n Platinum Club","contact":{"phone":"6157702477","formattedPhone":"(615) 770-2477"},"location":{"address":"501 Broadway","crossStreet":"On Executive Club Level","lat":36.15918404671207,"lng":-86.77720758816363,"postalCode":"37203","city":"Nashville","state":"TN","country":"United States","cc":"US"},"canonicalUrl":"https:\/\/foursquare.com\/v\/patr%C3%B3n-platinum-club\/4b93ee94f964a520be5a34e3","categories":[{"id":"4bf58dd8d48988d11e941735","name":"Cocktail Bar","pluralName":"Cocktail Bars","shortName":"Cocktail","icon":{"prefix":"https:\/\/foursquare.com\/img\/categories_v2\/nightlife\/cocktails_","suffix":".png"},"primary":true}],"verified":false,"stats":{"checkinsCount":1859,"usersCount":598,"tipCount":5}},{"id":"4b18040af964a52082cb23e3","name":"Broadway Brewhouse","contact":{"phone":"6152712838","formattedPhone":"(615) 271-2838"},"location":{"address":"317 Broadway","crossStreet":"Btw 3rd & 4th Ave. S","lat":36.161091327667236,"lng":-86.7764,"postalCode":"37201","city":"Nashville","state":"TN","country":"United States","cc":"US"},"canonicalUrl":"https:\/\/foursquare.com\/v\/broadway-brewhouse\/4b18040af964a52082cb23e3","categories":[{"id":"50327c8591d4c4b30a586d5d","name":"Brewery","pluralName":"Breweries","shortName":"Brewery","icon":{"prefix":"https:\/\/foursquare.com\/img\/categories_v2\/food\/brewery_","suffix":".png"},"primary":true}],"verified":false,"stats":{"checkinsCount":8186,"usersCount":4942,"tipCount":48},"url":"http:\/\/broadwaybrewhouse.net","menu":{"type":"foodAndBeverage","url":"https:\/\/foursquare.com\/v\/broadway-brewhouse\/4b18040af964a52082cb23e3\/menu","mobileUrl":"https:\/\/foursquare.com\/v\/4b18040af964a52082cb23e3\/device_menu"}},{"id":"4c350e1616adc928b23bc69c","name":"Margaritaville","contact":{"phone":"6152089080","formattedPhone":"(615) 208-9080","twitter":"mv_restaurants"},"location":{"address":"322 Broadway","crossStreet":"at 4th Ave N","lat":36.16106,"lng":-86.77707,"postalCode":"37201","city":"Nashville","state":"TN","country":"United States","cc":"US"},"canonicalUrl":"https:\/\/foursquare.com\/v\/margaritaville\/4c350e1616adc928b23bc69c","categories":[{"id":"4bf58dd8d48988d14e941735","name":"American Restaurant","pluralName":"American Restaurants","shortName":"American","icon":{"prefix":"https:\/\/foursquare.com\/img\/categories_v2\/food\/default_","suffix":".png"},"primary":true}],"verified":true,"stats":{"checkinsCount":7594,"usersCount":5930,"tipCount":61},"url":"http:\/\/www.margaritavillenashville.com","menu":{"type":"foodAndBeverage","url":"https:\/\/foursquare.com\/v\/margaritaville\/4c350e1616adc928b23bc69c\/menu","mobileUrl":"https:\/\/foursquare.com\/v\/4c350e1616adc928b23bc69c\/device_menu"}},{"id":"4b05866af964a5203d6122e3","name":"Country Music Hall of Fame and Museum","contact":{"phone":"6154162001","formattedPhone":"(615) 416-2001","twitter":"countrymusichof"},"location":{"address":"222 5th Ave S","crossStreet":"at Demonbreun St","lat":36.15841582005708,"lng":-86.7763602733612,"postalCode":"37203","city":"Nashville","state":"TN","country":"United States","cc":"US"},"canonicalUrl":"https:\/\/foursquare.com\/v\/country-music-hall-of-fame-and-museum\/4b05866af964a5203d6122e3","categories":[{"id":"4bf58dd8d48988d12d941735","name":"Monument \/ Landmark","pluralName":"Monuments \/ Landmarks","shortName":"Landmark","icon":{"prefix":"https:\/\/foursquare.com\/img\/categories_v2\/building\/government_monument_","suffix":".png"},"primary":true}],"verified":true,"stats":{"checkinsCount":7693,"usersCount":6344,"tipCount":34},"url":"http:\/\/countrymusichalloffame.org"}]}}}